site,longitude,latitude,years_inscribed
Old and New Towns of Edinburgh,-3.216666667,55.95,1995
Heart of Neolithic Orkney,-3.188666667,58.99605556,1999
St Kilda,-8.576666667,57.81722222,1986
New Lanark,-3.783055556,55.66333333,2001
"Frontiers of the Roman Empire, Antonine Wall",-3.856126071,56.00009684,2008
The Forth Bridge,-3.388888889,56.00111111,2015
The Flow Country,-4.046111111,58.39916667,2024
,,,
,,,